[ {
    "id": 1269843,
    "name": "Hyderabad",
    "state": "Telangana",
    "country": "IN",
    "coord": {
        "lon": 78.474442,
        "lat": 17.37528
    }
}, {
    "id": 1275339,
    "name": "Mumbai",
    "state": "Maharashtra",
    "country": "IN",
    "coord": {
        "lon": 72.847939,
        "lat": 19.01441
    }
},{
    "id": 1264527,
    "name": "Chennai",
    "state": "Tamil Nadu",
    "country": "IN",
    "coord": {
        "lon": 80.278473,
        "lat": 13.08784
    }
},{
    "id": 1259229,
    "name": "Pune",
    "state": "Maharashtra",
    "country": "IN",
    "coord": {
        "lon": 73.855347,
        "lat": 18.519569
    }
},{
    "id": 1261481,
    "name": "New Delhi",
    "state": "Delhi",
    "country": "IN",
    "coord": {
        "lon": 77.23114,
        "lat": 28.61282
    }
},{
    "id": 1261529,
    "name": "Nellore",
    "state": "Andhra Pradesh",
    "country": "IN",
    "coord": {
        "lon": 79.966667,
        "lat": 14.43333
    }
},{
    "id": 1254163,
    "name": "Thiruvananthapuram",
    "state": "Kerala",
    "country": "IN",
    "coord": {
        "lon": 76.916672,
        "lat": 8.48333
    }
}




]